{"features": [{"properties": {"NAME": "Afghanistan", "iso3": "AFG", "iso2": "AF"}, "geometry": {"coordinates": [66.08669022192838, 33.85639928169078], "type": "Point"}, "type": "Feature"}, {"properties": {"NAME": "Angola", "iso3": "AGO", "iso2": "AO"}, "geometry": {"coordinates": [17.470572552313467, -12.245869036133174], "type": "Point"}, "type": "Feature"}, {"properties": {"NAME": "Albania", "iso3": "ALB", "iso2": "AL"}, "geometry": {"coordinates": [20.03242643144325, 41.141353306048806], "type": "Point"}, "type": "Feature"}, {"properties": {"NAME": "United Arab Emirates", "iso3": "ARE", "iso2": "AE"}, "geometry": {"coordinates": [54.20671476159634, 23.868633653347608], "type": "Point"}, "type": "Feature"}, {"properties": {"NAME": "Argentina", "iso3": "ARG", "iso2": "AR"}, "geometry": {"coordinates": [-65.1753607711417, -35.446821489495086], "type": "Point"}, "type": "Feature"}, {"properties": {"NAME": "Armenia", "iso3": "ARM", "iso2": "AM"}, "geometry": {"coordinates": [45.00029001101485, 40.216607612301424], "type": "Point"}, "type": "Feature"}, {"properties": {"NAME": "Antarctica", "iso3": "ATA", "iso2": "AQ"}, "geometry": {"coordinates": [20.571000569842635, -80.49198288284343], "type": "Point"}, "type": "Feature"}, {"properties": {"NAME": "Fr. S. Antarctic Lands", "iso3": "ATF", "iso2": "TF"}, "geometry": {"coordinates": [69.53158047042368, -49.30645491167196], "type": "Point"}, "type": "Feature"}, {"properties": {"NAME": "Australia", "iso3": "AUS", "iso2": "AU"}, "geometry": {"coordinates": [134.502775475366, -25.73065477972604], "type": "Point"}, "type": "Feature"}, {"properties": {"NAME": "Austria", "iso3": "AUT", "iso2": "AT"}, "geometry": {"coordinates": [14.076158884337072, 47.61394879274626], "type": "Point"}, "type": "Feature"}, {"properties": {"NAME": "Azerbaijan", "iso3": "AZE", "iso2": "AZ"}, "geometry": {"coordinates": [47.55390958999195, 40.220690603592395], "type": "Point"}, "type": "Feature"}, {"properties": {"NAME": "Burundi", "iso3": "BDI", "iso2": "BI"}, "geometry": {"coordinates": [29.955780053967878, -3.3110841417873513], "type": "Point"}, "type": "Feature"}, {"properties": {"NAME": "Belgium", "iso3": "BEL", "iso2": "BE"}, "geometry": {"coordinates": [4.580831590651747, 50.65244260645213], "type": "Point"}, "type": "Feature"}, {"properties": {"NAME": "Benin", "iso3": "BEN", "iso2": "BJ"}, "geometry": {"coordinates": [2.3373775534961867, 9.647430780663745], "type": "Point"}, "type": "Feature"}, {"properties": {"NAME": "Burkina Faso", "iso3": "BFA", "iso2": "BF"}, "geometry": {"coordinates": [-1.7765374520558928, 12.311650494136742], "type": "Point"}, "type": "Feature"}, {"properties": {"NAME": "Bangladesh", "iso3": "BGD", "iso2": "BD"}, "geometry": {"coordinates": [90.26792827719602, 23.839461795344057], "type": "Point"}, "type": "Feature"}, {"properties": {"NAME": "Bulgaria", "iso3": "BGR", "iso2": "BG"}, "geometry": {"coordinates": [25.195110953277144, 42.75311876202171], "type": "Point"}, "type": "Feature"}, {"properties": {"NAME": "Bahamas", "iso3": "BHS", "iso2": "BS"}, "geometry": {"coordinates": [-77.92997080393516, 25.515491725336627], "type": "Point"}, "type": "Feature"}, {"properties": {"NAME": "Bosnia and Herz.", "iso3": "BIH", "iso2": "BA"}, "geometry": {"coordinates": [17.816883421298, 44.180767841386206], "type": "Point"}, "type": "Feature"}, {"properties": {"NAME": "Belarus", "iso3": "BLR", "iso2": "BY"}, "geometry": {"coordinates": [27.98135398690373, 53.50634440475129], "type": "Point"}, "type": "Feature"}, {"properties": {"NAME": "Belize", "iso3": "BLZ", "iso2": "BZ"}, "geometry": {"coordinates": [-88.70342125299315, 17.197089911451567], "type": "Point"}, "type": "Feature"}, {"properties": {"NAME": "Bolivia", "iso3": "BOL", "iso2": "BO"}, "geometry": {"coordinates": [-64.6414056060311, -16.72898701530581], "type": "Point"}, "type": "Feature"}, {"properties": {"NAME": "Brazil", "iso3": "BRA", "iso2": "BR"}, "geometry": {"coordinates": [-53.05434003576706, -10.806773643498907], "type": "Point"}, "type": "Feature"}, {"properties": {"NAME": "Brunei", "iso3": "BRN", "iso2": "BN"}, "geometry": {"coordinates": [114.91510877393951, 4.690250542520659], "type": "Point"}, "type": "Feature"}, {"properties": {"NAME": "Bhutan", "iso3": "BTN", "iso2": "BT"}, "geometry": {"coordinates": [90.4724248062037, 27.427968649102038], "type": "Point"}, "type": "Feature"}, {"properties": {"NAME": "Botswana", "iso3": "BWA", "iso2": "BW"}, "geometry": {"coordinates": [23.77308146578945, -22.0997113788264], "type": "Point"}, "type": "Feature"}, {"properties": {"NAME": "Central African Rep.", "iso3": "CAF", "iso2": "CF"}, "geometry": {"coordinates": [20.374347291243964, 6.5427787059213225], "type": "Point"}, "type": "Feature"}, {"properties": {"NAME": "Canada", "iso3": "CAN", "iso2": "CA"}, "geometry": {"coordinates": [-98.2389545427977, 61.569922467939506], "type": "Point"}, "type": "Feature"}, {"properties": {"NAME": "Switzerland", "iso3": "CHE", "iso2": "CH"}, "geometry": {"coordinates": [8.118300613385491, 46.79173768366762], "type": "Point"}, "type": "Feature"}, {"properties": {"NAME": "Chile", "iso3": "CHL", "iso2": "CL"}, "geometry": {"coordinates": [-71.52064394516434, -39.047014309948445], "type": "Point"}, "type": "Feature"}, {"properties": {"NAME": "China", "iso3": "CHN", "iso2": "CN"}, "geometry": {"coordinates": [103.88361628918881, 36.55506853517693], "type": "Point"}, "type": "Feature"}, {"properties": {"NAME": "C\u00f4te d'Ivoire", "iso3": "CIV", "iso2": "CI"}, "geometry": {"coordinates": [-5.612043645225211, 7.55375500701052], "type": "Point"}, "type": "Feature"}, {"properties": {"NAME": "Cameroon", "iso3": "CMR", "iso2": "CM"}, "geometry": {"coordinates": [12.611552515136616, 5.663098130302162], "type": "Point"}, "type": "Feature"}, {"properties": {"NAME": "Dem. Rep. Congo", "iso3": "COD", "iso2": "CD"}, "geometry": {"coordinates": [23.55224881881774, -2.833882866905272], "type": "Point"}, "type": "Feature"}, {"properties": {"NAME": "Congo", "iso3": "COG", "iso2": "CG"}, "geometry": {"coordinates": [15.134461767413555, -0.8378010872252662], "type": "Point"}, "type": "Feature"}, {"properties": {"NAME": "Colombia", "iso3": "COL", "iso2": "CO"}, "geometry": {"coordinates": [-73.07773208697479, 3.9272138627097264], "type": "Point"}, "type": "Feature"}, {"properties": {"NAME": "Costa Rica", "iso3": "CRI", "iso2": "CR"}, "geometry": {"coordinates": [-84.17542309600948, 9.965671127464548], "type": "Point"}, "type": "Feature"}, {"properties": {"NAME": "Cuba", "iso3": "CUB", "iso2": "CU"}, "geometry": {"coordinates": [-78.96068490970251, 21.631751541025217], "type": "Point"}, "type": "Feature"}, {"properties": {"NAME": "Cabo Verde", "iso3": "CPV", "iso2": "CV"}, "geometry": {"coordinates": [-23.991344177572156, 15.868706242789749], "type": "Point"}, "type": "Feature"}, {"properties": {"NAME": "N. Cyprus", "iso3": "CYP", "iso2": "CY"}, "geometry": {"coordinates": [33.55828595922489, 35.27395768125971], "type": "Point"}, "type": "Feature"}, {"properties": {"NAME": "Cyprus", "iso3": "CYP", "iso2": "CY"}, "geometry": {"coordinates": [33.039553802954046, 34.90706085094346], "type": "Point"}, "type": "Feature"}, {"properties": {"NAME": "Czechia", "iso3": "CZE", "iso2": "CZ"}, "geometry": {"coordinates": [15.33455810236585, 49.775245294369014], "type": "Point"}, "type": "Feature"}, {"properties": {"NAME": "Germany", "iso3": "DEU", "iso2": "DE"}, "geometry": {"coordinates": [10.288485092742892, 51.13372269040783], "type": "Point"}, "type": "Feature"}, {"properties": {"NAME": "Djibouti", "iso3": "DJI", "iso2": "DJ"}, "geometry": {"coordinates": [42.49801973604451, 11.77304439553391], "type": "Point"}, "type": "Feature"}, {"properties": {"NAME": "Denmark", "iso3": "DNK", "iso2": "DK"}, "geometry": {"coordinates": [9.876372937675015, 56.0639344617946], "type": "Point"}, "type": "Feature"}, {"properties": {"NAME": "Dominican Rep.", "iso3": "DOM", "iso2": "DO"}, "geometry": {"coordinates": [-70.4623584569753, 18.88448708798226], "type": "Point"}, "type": "Feature"}, {"properties": {"NAME": "Algeria", "iso3": "DZA", "iso2": "DZ"}, "geometry": {"coordinates": [2.5980477916183813, 28.185481278657573], "type": "Point"}, "type": "Feature"}, {"properties": {"NAME": "Ecuador", "iso3": "ECU", "iso2": "EC"}, "geometry": {"coordinates": [-78.38416674608375, -1.4547717055405636], "type": "Point"}, "type": "Feature"}, {"properties": {"NAME": "Egypt", "iso3": "EGY", "iso2": "EG"}, "geometry": {"coordinates": [29.844461513124447, 26.50661999974955], "type": "Point"}, "type": "Feature"}, {"properties": {"NAME": "Eritrea", "iso3": "ERI", "iso2": "ER"}, "geometry": {"coordinates": [38.678177342214305, 15.427275657917894], "type": "Point"}, "type": "Feature"}, {"properties": {"NAME": "Spain", "iso3": "ESP", "iso2": "ES"}, "geometry": {"coordinates": [-3.617020602387346, 40.34865610622675], "type": "Point"}, "type": "Feature"}, {"properties": {"NAME": "Estonia", "iso3": "EST", "iso2": "EE"}, "geometry": {"coordinates": [25.824728375319935, 58.643695240706975], "type": "Point"}, "type": "Feature"}, {"properties": {"NAME": "Ethiopia", "iso3": "ETH", "iso2": "ET"}, "geometry": {"coordinates": [39.551255792937766, 8.653999188132602], "type": "Point"}, "type": "Feature"}, {"properties": {"NAME": "Finland", "iso3": "FIN", "iso2": "FI"}, "geometry": {"coordinates": [26.211764697394596, 64.50409391856749], "type": "Point"}, "type": "Feature"}, {"properties": {"NAME": "Fiji", "iso3": "FJI", "iso2": "FJ"}, "geometry": {"coordinates": [163.85316464457972, -17.316309426382666], "type": "Point"}, "type": "Feature"}, {"properties": {"NAME": "Falkland Is.", "iso3": "FLK", "iso2": "FK"}, "geometry": {"coordinates": [-59.42097279311019, -51.71322176551183], "type": "Point"}, "type": "Feature"}, {"properties": {"NAME": "France", "iso3": "FRA", "iso2": "FR"}, "geometry": {"coordinates": [9.083939318705728, 42.18219222877828], "type": "Point"}, "type": "Feature"}, {"properties": {"NAME": "France", "iso3": "FRA", "iso2": "FR"}, "geometry": {"coordinates": [2.339088646029358, 46.60646337286317], "type": "Point"}, "type": "Feature"}, {"properties": {"NAME": "Gabon", "iso3": "GAB", "iso2": "GA"}, "geometry": {"coordinates": [11.687751174902052, -0.6470481398040173], "type": "Point"}, "type": "Feature"}, {"properties": {"NAME": "United Kingdom", "iso3": "GBR", "iso2": "GB"}, "geometry": {"coordinates": [-2.8531353951805514, 53.91477348053707], "type": "Point"}, "type": "Feature"}, {"properties": {"NAME": "Georgia", "iso3": "GEO", "iso2": "GE"}, "geometry": {"coordinates": [43.48154041978174, 42.162018699831464], "type": "Point"}, "type": "Feature"}, {"properties": {"NAME": "Guyane", "iso3": "GUF", "iso2": "GF"}, "geometry": {"coordinates": [-53.23850613032756, 3.9059335269224764], "type": "Point"}, "type": "Feature"}, {"properties": {"NAME": "Ghana", "iso3": "GHA", "iso2": "GH"}, "geometry": {"coordinates": [-1.236968555706382, 7.928651813099665], "type": "Point"}, "type": "Feature"}, {"properties": {"NAME": "Guinea", "iso3": "GIN", "iso2": "GN"}, "geometry": {"coordinates": [-11.060853741185442, 10.448272877271355], "type": "Point"}, "type": "Feature"}, {"properties": {"NAME": "Gambia", "iso3": "GMB", "iso2": "GM"}, "geometry": {"coordinates": [-15.431872807730823, 13.475334358701662], "type": "Point"}, "type": "Feature"}, {"properties": {"NAME": "Guinea-Bissau", "iso3": "GNB", "iso2": "GW"}, "geometry": {"coordinates": [-15.110623751667884, 12.02270438232569], "type": "Point"}, "type": "Feature"}, {"properties": {"NAME": "Eq. Guinea", "iso3": "GIN", "iso2": "GN"}, "geometry": {"coordinates": [10.366031325064053, 1.6458643199600946], "type": "Point"}, "type": "Feature"}, {"properties": {"NAME": "Greece", "iso3": "GRC", "iso2": "GR"}, "geometry": {"coordinates": [22.719813447095113, 39.06671589971399], "type": "Point"}, "type": "Feature"}, {"properties": {"NAME": "Greenland", "iso3": "GRL", "iso2": "GL"}, "geometry": {"coordinates": [-41.500181114920935, 74.77048769398984], "type": "Point"}, "type": "Feature"}, {"properties": {"NAME": "Guatemala", "iso3": "GTM", "iso2": "GL"}, "geometry": {"coordinates": [-90.3694583605315, 15.699360612026895], "type": "Point"}, "type": "Feature"}, {"properties": {"NAME": "Guyana", "iso3": "GUY", "iso2": "GY"}, "geometry": {"coordinates": [-58.97120310856247, 4.790225375174786], "type": "Point"}, "type": "Feature"}, {"properties": {"NAME": "Honduras", "iso3": "HND", "iso2": "HN"}, "geometry": {"coordinates": [-86.58996383801546, 14.82294708165295], "type": "Point"}, "type": "Feature"}, {"properties": {"NAME": "Croatia", "iso3": "HRV", "iso2": "HR"}, "geometry": {"coordinates": [16.566191106662153, 45.01623436797112], "type": "Point"}, "type": "Feature"}, {"properties": {"NAME": "Haiti", "iso3": "HTI", "iso2": "HT"}, "geometry": {"coordinates": [-72.65801330535571, 18.900700691843358], "type": "Point"}, "type": "Feature"}, {"properties": {"NAME": "Hungary", "iso3": "HUN", "iso2": "HU"}, "geometry": {"coordinates": [19.357628627745942, 47.19995117195426], "type": "Point"}, "type": "Feature"}, {"properties": {"NAME": "Indonesia", "iso3": "IDN", "iso2": "ID"}, "geometry": {"coordinates": [117.42340756227368, -2.2217379365205474], "type": "Point"}, "type": "Feature"}, {"properties": {"NAME": "India", "iso3": "IND", "iso2": "IN"}, "geometry": {"coordinates": [79.59370376325381, 22.92500640740853], "type": "Point"}, "type": "Feature"}, {"properties": {"NAME": "Ireland", "iso3": "IRL", "iso2": "IE"}, "geometry": {"coordinates": [-8.010236544876992, 53.18059120995009], "type": "Point"}, "type": "Feature"}, {"properties": {"NAME": "Iran", "iso3": "IRN", "iso2": "IR"}, "geometry": {"coordinates": [54.28545149689151, 32.51891731762543], "type": "Point"}, "type": "Feature"}, {"properties": {"NAME": "Iraq", "iso3": "IRQ", "iso2": "IQ"}, "geometry": {"coordinates": [43.75691141871342, 33.03682234103674], "type": "Point"}, "type": "Feature"}, {"properties": {"NAME": "Iceland", "iso3": "ISL", "iso2": "IS"}, "geometry": {"coordinates": [-18.76102877083173, 65.0742763352911], "type": "Point"}, "type": "Feature"}, {"properties": {"NAME": "Israel", "iso3": "ISR", "iso2": "IL"}, "geometry": {"coordinates": [35.00385004873625, 31.484917814965414], "type": "Point"}, "type": "Feature"}, {"properties": {"NAME": "Italy", "iso3": "ITA", "iso2": "IT"}, "geometry": {"coordinates": [12.140788372235885, 42.75118305296426], "type": "Point"}, "type": "Feature"}, {"properties": {"NAME": "Jamaica", "iso3": "JAM", "iso2": "JM"}, "geometry": {"coordinates": [-77.32425480164886, 18.137636127868443], "type": "Point"}, "type": "Feature"}, {"properties": {"NAME": "Jordan", "iso3": "JOR", "iso2": "JO"}, "geometry": {"coordinates": [36.779454906325235, 31.245490584748445], "type": "Point"}, "type": "Feature"}, {"properties": {"NAME": "Japan", "iso3": "JPN", "iso2": "JP"}, "geometry": {"coordinates": [138.06496213270776, 37.66311081170468], "type": "Point"}, "type": "Feature"}, {"properties": {"NAME": "Kazakhstan", "iso3": "KAZ", "iso2": "KZ"}, "geometry": {"coordinates": [67.28460860746569, 48.191662092495996], "type": "Point"}, "type": "Feature"}, {"properties": {"NAME": "Kenya", "iso3": "KEN", "iso2": "KE"}, "geometry": {"coordinates": [37.806336852306345, 0.6003755872017019], "type": "Point"}, "type": "Feature"}, {"properties": {"NAME": "Kyrgyzstan", "iso3": "KGZ", "iso2": "KG"}, "geometry": {"coordinates": [74.62040481092568, 41.50689371318265], "type": "Point"}, "type": "Feature"}, {"properties": {"NAME": "Cambodia", "iso3": "KHM", "iso2": "KH"}, "geometry": {"coordinates": [104.87608532525194, 12.68472862939353], "type": "Point"}, "type": "Feature"}, {"properties": {"NAME": "South Korea", "iso3": "KOR", "iso2": "KR"}, "geometry": {"coordinates": [127.8213171283308, 36.427598604154895], "type": "Point"}, "type": "Feature"}, {"properties": {"NAME": "Kosovo", "iso3": "XKX", "iso2": "XK"}, "geometry": {"coordinates": [20.89535248119789, 42.57936482582593], "type": "Point"}, "type": "Feature"}, {"properties": {"NAME": "Kuwait", "iso3": "KWT", "iso2": "KW"}, "geometry": {"coordinates": [47.60009888762644, 29.307266634033585], "type": "Point"}, "type": "Feature"}, {"properties": {"NAME": "Laos", "iso3": "LAO", "iso2": "LA"}, "geometry": {"coordinates": [103.75025989504464, 18.4449780890361], "type": "Point"}, "type": "Feature"}, {"properties": {"NAME": "Lebanon", "iso3": "LBN", "iso2": "LB"}, "geometry": {"coordinates": [35.87098632001648, 33.911827207819925], "type": "Point"}, "type": "Feature"}, {"properties": {"NAME": "Liberia", "iso3": "LBR", "iso2": "LR"}, "geometry": {"coordinates": [-9.410836154371099, 6.431619862252996], "type": "Point"}, "type": "Feature"}, {"properties": {"NAME": "Libya", "iso3": "LBY", "iso2": "LY"}, "geometry": {"coordinates": [17.97435277916046, 26.99746040702032], "type": "Point"}, "type": "Feature"}, {"properties": {"NAME": "Sri Lanka", "iso3": "LKA", "iso2": "LK"}, "geometry": {"coordinates": [80.6672357493165, 7.700534417248121], "type": "Point"}, "type": "Feature"}, {"properties": {"NAME": "Lesotho", "iso3": "LSO", "iso2": "LS"}, "geometry": {"coordinates": [28.1701052951705, -29.625290493692027], "type": "Point"}, "type": "Feature"}, {"properties": {"NAME": "Lithuania", "iso3": "LTU", "iso2": "LT"}, "geometry": {"coordinates": [23.880640275843522, 55.284319484766066], "type": "Point"}, "type": "Feature"}, {"properties": {"NAME": "Luxembourg", "iso3": "LUX", "iso2": "LU"}, "geometry": {"coordinates": [5.965223432343999, 49.76570507415104], "type": "Point"}, "type": "Feature"}, {"properties": {"NAME": "Latvia", "iso3": "LVA", "iso2": "LV"}, "geometry": {"coordinates": [24.833296149803488, 56.807175134279284], "type": "Point"}, "type": "Feature"}, {"properties": {"NAME": "Morocco", "iso3": "MAR", "iso2": "MA"}, "geometry": {"coordinates": [-8.420479544549634, 29.88539469830209], "type": "Point"}, "type": "Feature"}, {"properties": {"NAME": "Moldova", "iso3": "MDA", "iso2": "MD"}, "geometry": {"coordinates": [28.41048279080331, 47.203676426067574], "type": "Point"}, "type": "Feature"}, {"properties": {"NAME": "Madagascar", "iso3": "MDG", "iso2": "MG"}, "geometry": {"coordinates": [46.691170914716416, -19.35611407782877], "type": "Point"}, "type": "Feature"}, {"properties": {"NAME": "Mexico", "iso3": "MEX", "iso2": "MX"}, "geometry": {"coordinates": [-102.57634952398695, 23.935371902244825], "type": "Point"}, "type": "Feature"}, {"properties": {"NAME": "Macedonia", "iso3": "MKD", "iso2": "MK"}, "geometry": {"coordinates": [21.697896816140098, 41.60592893075939], "type": "Point"}, "type": "Feature"}, {"properties": {"NAME": "Mali", "iso3": "MLI", "iso2": "ML"}, "geometry": {"coordinates": [-3.5432943394533125, 17.267772061700715], "type": "Point"}, "type": "Feature"}, {"properties": {"NAME": "Myanmar", "iso3": "MMR", "iso2": "MM"}, "geometry": {"coordinates": [96.50584094206148, 21.016999873773834], "type": "Point"}, "type": "Feature"}, {"properties": {"NAME": "Montenegro", "iso3": "MNE", "iso2": "ME"}, "geometry": {"coordinates": [19.28618096719827, 42.78903833140127], "type": "Point"}, "type": "Feature"}, {"properties": {"NAME": "Mongolia", "iso3": "MNG", "iso2": "MN"}, "geometry": {"coordinates": [102.94640518633794, 46.82368250354822], "type": "Point"}, "type": "Feature"}, {"properties": {"NAME": "Mozambique", "iso3": "MOZ", "iso2": "MZ"}, "geometry": {"coordinates": [35.48236015868882, -17.28355057431867], "type": "Point"}, "type": "Feature"}, {"properties": {"NAME": "Mauritania", "iso3": "MRT", "iso2": "MR"}, "geometry": {"coordinates": [-10.326396925234967, 20.209267206353793], "type": "Point"}, "type": "Feature"}, {"properties": {"NAME": "Malawi", "iso3": "MWI", "iso2": "MW"}, "geometry": {"coordinates": [34.159971296326525, -13.255847333598364], "type": "Point"}, "type": "Feature"}, {"properties": {"NAME": "Malaysia", "iso3": "MYS", "iso2": "MY"}, "geometry": {"coordinates": [109.69814844862975, 3.7255884257737186], "type": "Point"}, "type": "Feature"}, {"properties": {"NAME": "Namibia", "iso3": "NAM", "iso2": "NA"}, "geometry": {"coordinates": [17.1561681261941, -22.099776931731046], "type": "Point"}, "type": "Feature"}, {"properties": {"NAME": "New Caledonia", "iso3": "NCL", "iso2": "NC"}, "geometry": {"coordinates": [165.53447460087548, -21.261357612526524], "type": "Point"}, "type": "Feature"}, {"properties": {"NAME": "Niger", "iso3": "NER", "iso2": "NE"}, "geometry": {"coordinates": [9.324429338177247, 17.345552353329204], "type": "Point"}, "type": "Feature"}, {"properties": {"NAME": "Nigeria", "iso3": "NGA", "iso2": "NG"}, "geometry": {"coordinates": [7.995127754089818, 9.548318418209996], "type": "Point"}, "type": "Feature"}, {"properties": {"NAME": "Nicaragua", "iso3": "NIC", "iso2": "NI"}, "geometry": {"coordinates": [-85.02031850080243, 12.848190428036995], "type": "Point"}, "type": "Feature"}, {"properties": {"NAME": "Netherlands", "iso3": "NLD", "iso2": "NL"}, "geometry": {"coordinates": [5.51221710096541, 52.29870037444179], "type": "Point"}, "type": "Feature"}, {"properties": {"NAME": "Norway", "iso3": "NOR", "iso2": "NO"}, "geometry": {"coordinates": [15.468126122726206, 69.15685639713284], "type": "Point"}, "type": "Feature"}, {"properties": {"NAME": "Nepal", "iso3": "NPL", "iso2": "NP"}, "geometry": {"coordinates": [84.01317367692536, 28.239440019049383], "type": "Point"}, "type": "Feature"}, {"properties": {"NAME": "New Zealand", "iso3": "NZL", "iso2": "NZ"}, "geometry": {"coordinates": [172.70192594405583, -41.6625787571587], "type": "Point"}, "type": "Feature"}, {"properties": {"NAME": "Oman", "iso3": "OMN", "iso2": "OM"}, "geometry": {"coordinates": [56.09867281997554, 20.611174374229588], "type": "Point"}, "type": "Feature"}, {"properties": {"NAME": "Pakistan", "iso3": "PAK", "iso2": "PK"}, "geometry": {"coordinates": [69.41399806318135, 29.97346002554742], "type": "Point"}, "type": "Feature"}, {"properties": {"NAME": "Panama", "iso3": "PAN", "iso2": "PA"}, "geometry": {"coordinates": [-80.10916483549374, 8.530019388864682], "type": "Point"}, "type": "Feature"}, {"properties": {"NAME": "Peru", "iso3": "PER", "iso2": "PE"}, "geometry": {"coordinates": [-74.39180581684721, -9.191562905134532], "type": "Point"}, "type": "Feature"}, {"properties": {"NAME": "Philippines", "iso3": "PHL", "iso2": "PH"}, "geometry": {"coordinates": [122.90267236988686, 11.763799362297712], "type": "Point"}, "type": "Feature"}, {"properties": {"NAME": "Papua New Guinea", "iso3": "PNG", "iso2": "PG"}, "geometry": {"coordinates": [145.31757462782255, -6.4516445146303445], "type": "Point"}, "type": "Feature"}, {"properties": {"NAME": "Poland", "iso3": "POL", "iso2": "PL"}, "geometry": {"coordinates": [19.311014308448733, 52.14826021933182], "type": "Point"}, "type": "Feature"}, {"properties": {"NAME": "Puerto Rico", "iso3": "PRI", "iso2": "PR"}, "geometry": {"coordinates": [-66.47922227695506, 18.237224570971893], "type": "Point"}, "type": "Feature"}, {"properties": {"NAME": "North Korea", "iso3": "PRK", "iso2": "KP"}, "geometry": {"coordinates": [127.1650167628122, 40.14302086084459], "type": "Point"}, "type": "Feature"}, {"properties": {"NAME": "Portugal", "iso3": "PRT", "iso2": "PT"}, "geometry": {"coordinates": [-8.05576558829566, 39.634049774978145], "type": "Point"}, "type": "Feature"}, {"properties": {"NAME": "Paraguay", "iso3": "PRY", "iso2": "PY"}, "geometry": {"coordinates": [-58.38738783350565, -23.248041946292062], "type": "Point"}, "type": "Feature"}, {"properties": {"NAME": "Palestine", "iso3": "PSE", "iso2": "PS"}, "geometry": {"coordinates": [35.27331962289027, 31.941136622415165], "type": "Point"}, "type": "Feature"}, {"properties": {"NAME": "Qatar", "iso3": "QAT", "iso2": "QA"}, "geometry": {"coordinates": [51.1835025789133, 25.321850974206694], "type": "Point"}, "type": "Feature"}, {"properties": {"NAME": "Romania", "iso3": "ROU", "iso2": "RO"}, "geometry": {"coordinates": [24.943252494635423, 45.85710103573805], "type": "Point"}, "type": "Feature"}, {"properties": {"NAME": "Russia", "iso3": "RUS", "iso2": "RU"}, "geometry": {"coordinates": [96.80331818290128, 61.96166349492301], "type": "Point"}, "type": "Feature"}, {"properties": {"NAME": "Rwanda", "iso3": "RWA", "iso2": "RW"}, "geometry": {"coordinates": [29.918965837080016, -2.013515525878693], "type": "Point"}, "type": "Feature"}, {"properties": {"NAME": "W. Sahara", "iso3": "ESH", "iso2": "EH"}, "geometry": {"coordinates": [-12.137831111607847, 24.291172960208577], "type": "Point"}, "type": "Feature"}, {"properties": {"NAME": "Saudi Arabia", "iso3": "SAU", "iso2": "SA"}, "geometry": {"coordinates": [44.51636376826481, 24.12328983910533], "type": "Point"}, "type": "Feature"}, {"properties": {"NAME": "Sudan", "iso3": "SDN", "iso2": "SD"}, "geometry": {"coordinates": [29.86260401225794, 15.990585003116706], "type": "Point"}, "type": "Feature"}, {"properties": {"NAME": "S. Sudan", "iso3": "SSD", "iso2": "SS"}, "geometry": {"coordinates": [30.198617582275265, 7.292889714818276], "type": "Point"}, "type": "Feature"}, {"properties": {"NAME": "Senegal", "iso3": "SEN", "iso2": "SN"}, "geometry": {"coordinates": [-14.509802785859401, 14.354139988452046], "type": "Point"}, "type": "Feature"}, {"properties": {"NAME": "Solomon Is.", "iso3": "SLB", "iso2": "SB"}, "geometry": {"coordinates": [159.96661544742966, -8.852497470848498], "type": "Point"}, "type": "Feature"}, {"properties": {"NAME": "Sierra Leone", "iso3": "SLE", "iso2": "SL"}, "geometry": {"coordinates": [-11.795257428559921, 8.530353726153047], "type": "Point"}, "type": "Feature"}, {"properties": {"NAME": "El Salvador", "iso3": "SLV", "iso2": "SV"}, "geometry": {"coordinates": [-88.87290317032374, 13.726091625794238], "type": "Point"}, "type": "Feature"}, {"properties": {"NAME": "Somaliland", "iso3": "SOM", "iso2": "SO"}, "geometry": {"coordinates": [46.23074776134352, 9.757970293312715], "type": "Point"}, "type": "Feature"}, {"properties": {"NAME": "Somalia", "iso3": "SOM", "iso2": "SO"}, "geometry": {"coordinates": [45.72670076723564, 4.752347756504916], "type": "Point"}, "type": "Feature"}, {"properties": {"NAME": "Serbia", "iso3": "SRB", "iso2": "RS"}, "geometry": {"coordinates": [20.819651267430213, 44.23303720363515], "type": "Point"}, "type": "Feature"}, {"properties": {"NAME": "Suriname", "iso3": "SUR", "iso2": "SR"}, "geometry": {"coordinates": [-55.91145629952071, 4.120008031758899], "type": "Point"}, "type": "Feature"}, {"properties": {"NAME": "Slovakia", "iso3": "SVK", "iso2": "SK"}, "geometry": {"coordinates": [19.50765714743375, 48.726711351727516], "type": "Point"}, "type": "Feature"}, {"properties": {"NAME": "Slovenia", "iso3": "SVN", "iso2": "SI"}, "geometry": {"coordinates": [14.938152320795744, 46.1254220590104], "type": "Point"}, "type": "Feature"}, {"properties": {"NAME": "Sweden", "iso3": "SWE", "iso2": "SE"}, "geometry": {"coordinates": [16.596265846848056, 62.81148496808033], "type": "Point"}, "type": "Feature"}, {"properties": {"NAME": "Swaziland", "iso3": "SWZ", "iso2": "SZ"}, "geometry": {"coordinates": [31.395255902065376, -26.489855288519994], "type": "Point"}, "type": "Feature"}, {"properties": {"NAME": "Syria", "iso3": "SYR", "iso2": "SY"}, "geometry": {"coordinates": [38.54423941961141, 35.012614281129025], "type": "Point"}, "type": "Feature"}, {"properties": {"NAME": "Chad", "iso3": "TCD", "iso2": "TD"}, "geometry": {"coordinates": [18.581329525332908, 15.328867399839671], "type": "Point"}, "type": "Feature"}, {"properties": {"NAME": "Togo", "iso3": "TGO", "iso2": "TG"}, "geometry": {"coordinates": [0.9964039436703893, 8.439541954669602], "type": "Point"}, "type": "Feature"}, {"properties": {"NAME": "Thailand", "iso3": "THA", "iso2": "TH"}, "geometry": {"coordinates": [101.00613354626105, 15.016974991416483], "type": "Point"}, "type": "Feature"}, {"properties": {"NAME": "Tajikistan", "iso3": "TJK", "iso2": "TJ"}, "geometry": {"coordinates": [71.03443504896114, 38.58308146421082], "type": "Point"}, "type": "Feature"}, {"properties": {"NAME": "Turkmenistan", "iso3": "TKM", "iso2": "TM"}, "geometry": {"coordinates": [59.275430262361446, 39.091240180175845], "type": "Point"}, "type": "Feature"}, {"properties": {"NAME": "Timor-Leste", "iso3": "TLS", "iso2": "TL"}, "geometry": {"coordinates": [125.96630027368408, -8.767760362466976], "type": "Point"}, "type": "Feature"}, {"properties": {"NAME": "Trinidad and Tobago", "iso3": "TTO", "iso2": "TT"}, "geometry": {"coordinates": [-61.330366914449655, 10.428237089201877], "type": "Point"}, "type": "Feature"}, {"properties": {"NAME": "Tunisia", "iso3": "TUN", "iso2": "TN"}, "geometry": {"coordinates": [9.534716120695876, 34.17293903688236], "type": "Point"}, "type": "Feature"}, {"properties": {"NAME": "Turkey", "iso3": "TUR", "iso2": "TR"}, "geometry": {"coordinates": [35.11690130804058, 39.06837174141661], "type": "Point"}, "type": "Feature"}, {"properties": {"NAME": "Taiwan", "iso3": "TWN", "iso2": "TW"}, "geometry": {"coordinates": [120.97480073748625, 23.740964979784902], "type": "Point"}, "type": "Feature"}, {"properties": {"NAME": "Tanzania", "iso3": "TZA", "iso2": "TZ"}, "geometry": {"coordinates": [34.91547415070151, -6.400695714480467], "type": "Point"}, "type": "Feature"}, {"properties": {"NAME": "Uganda", "iso3": "UGA", "iso2": "UG"}, "geometry": {"coordinates": [32.28526020856282, 1.5020536045680768], "type": "Point"}, "type": "Feature"}, {"properties": {"NAME": "Ukraine", "iso3": "UKR", "iso2": "UA"}, "geometry": {"coordinates": [31.22912654093476, 49.14882286597924], "type": "Point"}, "type": "Feature"}, {"properties": {"NAME": "Uruguay", "iso3": "URY", "iso2": "UY"}, "geometry": {"coordinates": [-56.00327866654842, -32.780904365230796], "type": "Point"}, "type": "Feature"}, {"properties": {"NAME": "United States of America", "iso3": "USA", "iso2": "US"}, "geometry": {"coordinates": [-113.02465020868243, 45.71528484245453], "type": "Point"}, "type": "Feature"}, {"properties": {"NAME": "Uzbekistan", "iso3": "UZB", "iso2": "UZ"}, "geometry": {"coordinates": [63.20363952823184, 41.74860266465225], "type": "Point"}, "type": "Feature"}, {"properties": {"NAME": "Venezuela", "iso3": "VEN", "iso2": "VE"}, "geometry": {"coordinates": [-66.16382727830242, 7.162132267639024], "type": "Point"}, "type": "Feature"}, {"properties": {"NAME": "Vietnam", "iso3": "VNM", "iso2": "VN"}, "geometry": {"coordinates": [106.28584079705196, 16.65793775325493], "type": "Point"}, "type": "Feature"}, {"properties": {"NAME": "Vanuatu", "iso3": "VUT", "iso2": "VU"}, "geometry": {"coordinates": [167.07375126822677, -15.542677057554899], "type": "Point"}, "type": "Feature"}, {"properties": {"NAME": "Yemen", "iso3": "YEM", "iso2": "YE"}, "geometry": {"coordinates": [47.53504475854354, 15.913231950143027], "type": "Point"}, "type": "Feature"}, {"properties": {"NAME": "South Africa", "iso3": "ZAF", "iso2": "ZA"}, "geometry": {"coordinates": [25.048013879861696, -28.94703325997911], "type": "Point"}, "type": "Feature"}, {"properties": {"NAME": "Zambia", "iso3": "ZMB", "iso2": "ZM"}, "geometry": {"coordinates": [27.720251305652376, -13.406623639001213], "type": "Point"}, "type": "Feature"}, {"properties": {"NAME": "Zimbabwe", "iso3": "ZWE", "iso2": "ZW"}, "geometry": {"coordinates": [29.78854837189257, -18.9069879478588], "type": "Point"}, "type": "Feature"}], "type": "FeatureCollection"}